{
  "putAndTake": [
    {
      "name": "Engesvang Put & Take",
      "distance": "3 km",
      "description": "Velholdt sø med ørredudsætning flere gange om ugen og gode faciliteter til rensning.",
      "link": "https://engesvangputtake.dk",
      "coordinates": [56.1836, 9.2647]
    },
    {
      "name": "Bording Lystfiskersø",
      "distance": "12 km",
      "description": "To søer med både regnbue- og kildeørred, familievenlige områder og kiosk.",
      "link": "https://bordinglystfiskerso.dk",
      "coordinates": [56.1952, 9.1523]
    },
    {
      "name": "Karup Å",
      "distance": "18 km",
      "description": "Legendarisk havørredvand med smukke stræk og guidede ture efter aftale.",
      "link": "https://www.karupaa.dk",
      "coordinates": [56.3051, 9.1724]
    }
  ],
  "rivers": [
    {
      "name": "Karup Å",
      "distance": "18 km",
      "description": "Vælg mellem dagkort og guidede ture – sæson fra 1. marts til 31. oktober.",
      "link": "https://www.karupaa.dk",
      "coordinates": [56.3051, 9.1724]
    },
    {
      "name": "Gudenåen",
      "distance": "22 km",
      "description": "Største danske å med muligheder for laks, havørred, gedde og aborre.",
      "link": "https://www.gudenaaen.dk",
      "coordinates": [56.1697, 9.5451]
    }
  ],
  "lakes": [
    {
      "name": "Bølling Sø",
      "distance": "2 km",
      "description": "Naturskøn sø med stier hele vejen rundt og gode chancer for gedde og sandart.",
      "link": "https://www.naturstyrelsen.dk/naturoplevelser/naturguider/boelling-soe",
      "coordinates": [56.1879, 9.2164]
    },
    {
      "name": "Hinge Sø",
      "distance": "24 km",
      "description": "Klarvandet sø omgivet af skov – perfekt til kajak og aftenfiskeri.",
      "link": "https://www.visit-silkeborg.dk/hinge-soe",
      "coordinates": [56.3276, 9.5127]
    }
  ],
  "tips": [
    "Forår og efterår er ideelle til havørred i Karup Å – brug mørke streamers i de tidlige morgentimer.",
    "Sommerens varme dage kalder på aftenfiskeri i put & take søerne – prøv små spinnere og bombarda.",
    "Husk fisketegn og lokale regler; vi har oversigter liggende i huset sammen med fangstrapporter."
  ]
}
